[
	{
		"name": "日本橋店",
		"postalCode": "103-0027",
		"address": "中央区日本橋3-8-9　日本橋ホリビル1階",
		"tel": "03-3273-5470",
		"hours": {
			"weekdays": "7:00 ～ 20:00",
			"saturday": "8:00 ～ 15:00",
			"sunday": "休日"
		}
	},
	{
		"name": "兜町店",
		"postalCode": "103-0026",
		"address": "中央区日本橋兜町9-2 兜町第2ビル1階",
		"tel": "03-3668-7033",
		"hours": {
			"weekdays": "7:00 ～ 20:00",
			"saturday": "休日",
			"sunday": "休日"
		}
	},
	{
		"name": "茅場町店",
		"postalCode": "103-0025",
		"address": "中央区日本橋茅場町1-11-3 岡本ビル1階",
		"tel": "03-3666-2999",
		"hours": {
			"weekdays": "6:30 ～ 20:00",
			"saturday": "6:30 ～ 15:00",
			"sunday": "休日"
		}
	},
	{
		"name": "銀座七丁目店",
		"postalCode": "104-0061",
		"address": "中央区銀座7-10-12 第二柳屋ビル1階",
		"tel": "03-6264-6731",
		"hours": {
			"weekdays": "7:30 ～ 20:00",
			"saturday": "10:00 ～ 19:00",
			"sunday": "10:00 ～ 17:00"
		}
	},
	{
		"name": "歌舞伎店",
		"postalCode": "104-0061",
		"address": "中央区銀座4-11-7 第二上原ビル1階",
		"tel": "03-3541-3063",
		"hours": {
			"weekdays": "7:00 ～ 21:00",
			"saturday": "7:30 ～ 17:00",
			"sunday": "8:00 ～ 17:00"
		}
	},
	{
		"name": "小舟町店",
		"postalCode": "103-0024",
		"address": "中央区日本橋小舟町14-12",
		"tel": "03-3667-3077",
		"hours": {
			"weekdays": "7:30 ～ 20:00",
			"saturday": "休日",
			"sunday": "休日"
		}
	},
	{
		"name": "三越前店",
		"postalCode": "103-0022",
		"address": "中央区日本橋室町1-5-15 昇賢ビル1階",
		"tel": "03-3278-9033",
		"hours": {
			"weekdays": "7:00 ～ 20:00",
			"saturday": "8:00 ～ 16:00",
			"sunday": "10:00 ～ 16:00"
		}
	},
	{
		"name": "新富町店",
		"postalCode": "104-0041",
		"address": "中央区新富2-4-6 アーベイン三井1階",
		"tel": "03-3553-6236",
		"hours": {
			"weekdays": "7:30 ～ 20:00",
			"saturday": "休日",
			"sunday": "休日"
		}
	},
	{
		"name": "小伝馬町店",
		"postalCode": "103-0001",
		"address": "中央区日本橋小伝馬町3-10 三敬ビル1F",
		"tel": "03-5695-3277",
		"hours": {
			"weekdays": "7:00 ～ 20:00",
			"saturday": "休日",
			"sunday": "休日"
		}
	},
	{
		"name": "八重洲店",
		"postalCode": "103-0027",
		"address": "中央区日本橋2-2-18 にのに八重洲仲通りビル",
		"tel": "03-6910-3989",
		"hours": {
			"weekdays": "6:30 ～ 21:00",
			"saturday": "7:00 ～ 17:00",
			"sunday": "10:00 ～ 17:00"
		}
	},
	{
		"name": "銀座木挽町店",
		"postalCode": "104-0061",
		"address": "中央区銀座7-15-9 渡邉データビル1階",
		"tel": "03-3545-1022",
		"hours": {
			"weekdays": "7:00 ～ 21:00",
			"saturday": "7:30 ～ 16:00",
			"sunday": "休日"
		}
	},
	{
		"name": "亀島橋店",
		"postalCode": "103-0025",
		"address": "中央区日本橋茅場町2-16-9 平和ビル1階",
		"tel": "03-5652-3607",
		"hours": {
			"weekdays": "7:30 ～ 20:00",
			"saturday": "休日",
			"sunday": "休日"
		}
	},
	{
		"name": "築地店",
		"postalCode": "104-0045",
		"address": "中央区築地2-12-9 まるみビル1階",
		"tel": "03-3541-1314",
		"hours": {
			"weekdays": "7:00 ～ 19:00",
			"saturday": "休日",
			"sunday": "休日"
		}
	},
	{
		"name": "桜橋店",
		"postalCode": "104-0032",
		"address": "中央区八丁堀3-11-9 百福ビル1階",
		"tel": "03-5566-0580",
		"hours": {
			"weekdays": "7:00 ～ 20:00",
			"saturday": "休日",
			"sunday": "休日"
		}
	},
	{
		"name": "宝町店",
		"postalCode": "104-0031",
		"address": "中央区京橋1-6-11 カンケン京橋ビル1階",
		"tel": "03-5159-8399",
		"hours": {
			"weekdays": "7:30 ～ 20:00",
			"saturday": "10:00 ～ 15:00",
			"sunday": "休日"
		}
	},
	{
		"name": "東日本橋店",
		"postalCode": "103-0004",
		"address": "中央区東日本橋3-12-12 櫻正宗東日本橋ビル1階",
		"tel": "03-5645-8284",
		"hours": {
			"weekdays": "7:00 ～ 19:00",
			"saturday": "休日",
			"sunday": "休日"
		}
	},
	{
		"name": "茅場さくら通り店",
		"postalCode": "103-0025",
		"address": "中央区日本橋茅場町3-4-1 M-1ビル1階",
		"tel": "03-5641-1730",
		"hours": {
			"weekdays": "8:00 ～ 20:00",
			"saturday": "休日",
			"sunday": "休日"
		}
	},
	{
		"name": "八丁堀駅前店",
		"postalCode": "104-0032",
		"address": "中央区八丁堀2-21-5 西勘ビル1階",
		"tel": "03-5541-7301",
		"hours": {
			"weekdays": "7:00 ～ 20:00",
			"saturday": "休日",
			"sunday": "休日"
		}
	},
	{
		"name": "浜町店",
		"postalCode": "103-0007",
		"address": "中央区日本橋浜町2-36-8　宝ビル1階",
		"tel": "03-6667-0620",
		"hours": {
			"weekdays": "7:00 ～ 20:00",
			"saturday": "9:00 ～ 15:00",
			"sunday": "休日"
		}
	}
]