[
	{
		"name": "今川橋店",
		"postalCode": "101-0044",
		"address": "千代田区鍛冶町1-9-1 第二大久保ビル1階",
		"tel": "03-3256-0395",
		"hours": {
			"weekdays": "7:00 ～ 21:00",
			"saturday": "7:00 ～ 16:00",
			"sunday": "休日"
		}
	},
	{
		"name": "岩本町店",
		"postalCode": "101-0032",
		"address": "千代田区岩本町2-18-14 藤井第一ビル1階",
		"tel": "03-3865-0677",
		"hours": {
			"weekdays": "7:30 ～ 19:00",
			"saturday": "休日",
			"sunday": "休日"
		}
	},
	{
		"name": "鎌倉橋店",
		"postalCode": "101-0047",
		"address": "千代田区内神田1-8-9 福田ビル1階",
		"tel": "03-3294-8242",
		"hours": {
			"weekdays": "7:00 ～ 20:00",
			"saturday": "休日",
			"sunday": "休日"
		}
	},
	{
		"name": "ニコライ坂店",
		"postalCode": "101-0062",
		"address": "千代田区神田駿河台3-1-9 日光ビル1階",
		"tel": "03-5259-0051",
		"hours": {
			"weekdays": "7:30 ～ 20:00",
			"saturday": "休日",
			"sunday": "休日"
		}
	},
	{
		"name": "神田北口店",
		"postalCode": "101-0045",
		"address": "千代田区神田鍛冶町3-3-1 栄立ビル1階",
		"tel": "03-3251-0877",
		"hours": {
			"weekdays": "5:30 ～ 21:00",
			"saturday": "6:00 ～ 16:00",
			"sunday": "休日"
		}
	},
	{
		"name": "神保町店",
		"postalCode": "101-0051",
		"address": "千代田区神田神保町1-5 光風館ビル1階",
		"tel": "03-5217-3075",
		"hours": {
			"weekdays": "7:30 ～ 20:00",
			"saturday": "9:00 ～ 18:00",
			"sunday": "9:00 ～ 17:00"
		}
	},
	{
		"name": "市ヶ谷店",
		"postalCode": "102-0073",
		"address": "千代田区九段北4-1-1 九段一口坂ビル1階",
		"tel": "03-5226-3020",
		"hours": {
			"weekdays": "7:00 ～ 20:00",
			"saturday": "休日",
			"sunday": "休日"
		}
	},
	{
		"name": "昌平橋店",
		"postalCode": "101-0021",
		"address": "千代田区外神田1-6-3 熊谷ビル1階",
		"tel": "03-5207-6425",
		"hours": {
			"weekdays": "10:00 ～ 20:00",
			"saturday": "10:00 ～ 19:00",
			"sunday": "11:00 ～ 18:00"
		}
	},
	{
		"name": "九段下駅前店",
		"postalCode": "102-0073",
		"address": "千代田区九段北1-2-2 グランドメゾン九段1階",
		"tel": "03-5212-6668",
		"hours": {
			"weekdays": "7:00 ～ 21:00",
			"saturday": "8:00 ～ 17:00",
			"sunday": "10:00 ～ 17:00"
		}
	},
	{
		"name": "麹町店",
		"postalCode": "102-0083",
		"address": "千代田区麹町2-14-6 麹町パレス1階",
		"tel": "03-5215-1815",
		"hours": {
			"weekdays": "8:00 ～ 20:00",
			"saturday": "休日",
			"sunday": "休日"
		}
	},
	{
		"name": "岩本町2号店",
		"postalCode": "101-0032",
		"address": "千代田区岩本町3-3-2 アックス神田ビル１階",
		"tel": "03-5809-2380",
		"hours": {
			"weekdays": "7:00 ～ 19:00",
			"saturday": "休日",
			"sunday": "休日"
		}
	},
	{
		"name": "水道橋店",
		"postalCode": "101-0061",
		"address": "千代田区神田三崎町3-8-5 千代田JEBL",
		"tel": "03-6261-6477",
		"hours": {
			"weekdays": "10:00 ～ 21:00",
			"saturday": "休日",
			"sunday": "休日"
		}
	},
	{
		"name": "富国生命ビル店",
		"postalCode": "100-0011",
		"address": "千代田区内幸町2-2-2　富国生命ビル地下2階",
		"tel": "03-3528-8650",
		"hours": {
			"weekdays": "10:00 ～ 20:00",
			"saturday": "休日",
			"sunday": "休日"
		}
	}
]